{
  "cities": [
    {
      "cityName": "Lisbon",
      "country": "Portugal",
      "emoji": "ðŸ‡µðŸ‡¹",
      "date": "2027-10-31T15:59:59.138Z",
      "notes": "My favorite city so far!",
      "position": {
        "lat": 38.727881642324164,
        "lng": -9.140900099907554
      },
      "id": 73930385
    },
    {
      "cityName": "Madrid",
      "country": "Spain",
      "emoji": "ðŸ‡ªðŸ‡¸",
      "date": "2027-07-15T08:22:53.976Z",
      "notes": "",
      "position": {
        "lat": 40.46635901755316,
        "lng": -3.7133789062500004
      },
      "id": 17806751
    },
    {
      "cityName": "Berlin",
      "country": "Germany",
      "emoji": "ðŸ‡©ðŸ‡ª",
      "date": "2027-02-12T09:24:11.863Z",
      "notes": "Amazing ðŸ˜ƒ",
      "position": {
        "lat": 52.53586782505711,
        "lng": 13.376933665713324
      },
      "id": 98443197
    },
    {
      "cityName": "Basoda",
      "country": "India",
      "emoji": "ðŸ‡®ðŸ‡³",
      "date": "2023-08-03T02:18:47.886Z",
      "notes": "Madhya paresh",
      "position": {
        "lat": "23.744208611229748",
        "lng": "77.89306640625001"
      },
      "id": 98443198
    },
    {
      "cityName": "Yadagirigutta",
      "country": "India",
      "emoji": "ðŸ‡®ðŸ‡³",
      "date": "2023-08-03T02:24:11.852Z",
      "notes": "Telangana",
      "position": {
        "lat": "17.65896816701371",
        "lng": "78.96972656250001"
      },
      "id": 98443199
    }
  ]
}